{"type": "FeatureCollection", "features": [{"geometry": {"type": "Point", "coordinates": [14.1067465, 50.1416986]}, "type": "Feature", "properties": {"placeName": "Kladno, Czech Republic", "playerCount": 1, "players": "Jiri Sekac, Left Wing, ANA"}}, {"geometry": {"type": "Point", "coordinates": [12.6945121, 56.0464674]}, "type": "Feature", "properties": {"placeName": "Helsingborg, Sweden", "playerCount": 1, "players": "Hampus Lindholm, Defenseman, ANA"}}, {"geometry": {"type": "Point", "coordinates": [-90.19940419999999, 38.6270025]}, "type": "Feature", "properties": {"placeName": "St. Louis, MO", "playerCount": 1, "players": "Patrick Maroon, Left Wing, ANA"}}, {"geometry": {"type": "Point", "coordinates": [17.1412726, 60.6748796]}, "type": "Feature", "properties": {"placeName": "G\u00e4vle, Sweden", "playerCount": 1, "players": "Jakob Silfverberg, Right Wing, ANA"}}, {"geometry": {"type": "Point", "coordinates": [-117.7117301, 49.0965676]}, "type": "Feature", "properties": {"placeName": "Trail, BC", "playerCount": 1, "players": "Shawn Horcoff, Center, ANA"}}, {"geometry": {"type": "Point", "coordinates": [17.9663093, 59.3670471]}, "type": "Feature", "properties": {"placeName": "Sundbyberg, Sweden", "playerCount": 1, "players": "Rickard Rakell, Center, ANA"}}, {"geometry": {"type": "Point", "coordinates": [8.967322, 56.138557]}, "type": "Feature", "properties": {"placeName": "Herning, Denmark", "playerCount": 1, "players": "Frederik Andersen, Goalie, ANA"}}, {"geometry": {"type": "Point", "coordinates": [-79.9958864, 40.44062479999999]}, "type": "Feature", "properties": {"placeName": "Pittsburgh, PA", "playerCount": 1, "players": "John Gibson, Goalie, ANA"}}, {"geometry": {"type": "Point", "coordinates": [-122.5593218, 49.0743308]}, "type": "Feature", "properties": {"placeName": "Langley, BC", "playerCount": 1, "players": "Shea Theodore, Defenseman, ANA"}}, {"geometry": {"type": "Point", "coordinates": [-104.6188944, 50.4452112]}, "type": "Feature", "properties": {"placeName": "Regina, SK", "playerCount": 1, "players": "Ryan Getzlaf, Center, ANA"}}, {"geometry": {"type": "Point", "coordinates": [-83.03636329999999, 42.3149367]}, "type": "Feature", "properties": {"placeName": "Windsor, ON", "playerCount": 1, "players": "Cam Fowler, Defenseman, ANA"}}, {"geometry": {"type": "Point", "coordinates": [-83.35270969999999, 42.36837]}, "type": "Feature", "properties": {"placeName": "Livonia, MI", "playerCount": 1, "players": "Ryan Kesler, Center, ANA"}}, {"geometry": {"type": "Point", "coordinates": [-78.31974699999999, 44.309058]}, "type": "Feature", "properties": {"placeName": "Peterborough, ON", "playerCount": 1, "players": "Corey Perry, Right Wing, ANA"}}, {"geometry": {"type": "Point", "coordinates": [-87.9370052, 41.8008642]}, "type": "Feature", "properties": {"placeName": "Hinsdale, IL", "playerCount": 1, "players": "Josh Manson, Defenseman, ANA"}}, {"geometry": {"type": "Point", "coordinates": [-149.9002778, 61.2180556]}, "type": "Feature", "properties": {"placeName": "Anchorage, AK", "playerCount": 1, "players": "Nate Thompson, Center, ANA"}}, {"geometry": {"type": "Point", "coordinates": [25.7472184, 62.244747]}, "type": "Feature", "properties": {"placeName": "Jyv\u00e4skyl\u00e4, Finland", "playerCount": 1, "players": "Sami Vatanen, Defenseman, ANA"}}, {"geometry": {"type": "Point", "coordinates": [-123.1207375, 49.2827291]}, "type": "Feature", "properties": {"placeName": "Vancouver, BC", "playerCount": 1, "players": "Mike Santorelli, Center, ANA"}}, {"geometry": {"type": "Point", "coordinates": [-79.3831843, 43.653226]}, "type": "Feature", "properties": {"placeName": "Toronto, ON", "playerCount": 2, "players": "Andrew Cogliano, Left Wing, ANA<br>Chris Stewart, Right Wing, ANA"}}, {"geometry": {"type": "Point", "coordinates": [11.5819806, 48.1351253]}, "type": "Feature", "properties": {"placeName": "Munich, Germany", "playerCount": 1, "players": "Korbinian Holzer, Defenseman, ANA"}}, {"geometry": {"type": "Point", "coordinates": [-127.084755, 50.590142]}, "type": "Feature", "properties": {"placeName": "Port Mcneill, BC", "playerCount": 1, "players": "Clayton Stoner, Defenseman, ANA"}}, {"geometry": {"type": "Point", "coordinates": [17.625689, 59.19536300000001]}, "type": "Feature", "properties": {"placeName": "Sodertalje, Sweden", "playerCount": 1, "players": "Carl Hagelin, Left Wing, ANA"}}, {"geometry": {"type": "Point", "coordinates": [-73.712409, 45.6066487]}, "type": "Feature", "properties": {"placeName": "Laval, QC", "playerCount": 1, "players": "Simon Despres, Defenseman, ANA"}}, {"geometry": {"type": "Point", "coordinates": [-79.56241949999999, 43.1942126]}, "type": "Feature", "properties": {"placeName": "Grimsby, ON", "playerCount": 1, "players": "Kevin Bieksa, Defenseman, ANA"}}]}