{"type": "FeatureCollection", "features": [{"geometry": {"type": "Point", "coordinates": [-83.48211599999999, 42.3086444]}, "type": "Feature", "properties": {"placeName": "Canton, MI", "playerCount": 1, "players": "James Wisniewski, Defenseman, CAR"}}, {"geometry": {"type": "Point", "coordinates": [-65.50590609999999, 47.0295709]}, "type": "Feature", "properties": {"placeName": "Miramichi, NB", "playerCount": 1, "players": "Brad Malone, Center, CAR"}}, {"geometry": {"type": "Point", "coordinates": [-73.85874609999999, 41.0762077]}, "type": "Feature", "properties": {"placeName": "Tarrytown, NY", "playerCount": 1, "players": "Brett Pesce, Defenseman, CAR"}}, {"geometry": {"type": "Point", "coordinates": [-104.990251, 39.7392358]}, "type": "Feature", "properties": {"placeName": "Denver, CO", "playerCount": 1, "players": "Jaccob Slavin, Defenseman, CAR"}}, {"geometry": {"type": "Point", "coordinates": [-80.3778336, 43.7059522]}, "type": "Feature", "properties": {"placeName": "Fergus, ON", "playerCount": 1, "players": "Brock McGinn, Left Wing, CAR"}}, {"geometry": {"type": "Point", "coordinates": [-106.6700458, 52.1332144]}, "type": "Feature", "properties": {"placeName": "Saskatoon, SK", "playerCount": 1, "players": "Cam Ward, Goalie, CAR"}}, {"geometry": {"type": "Point", "coordinates": [-83.26522539999999, 42.82472930000001]}, "type": "Feature", "properties": {"placeName": "Oxford, MI", "playerCount": 1, "players": "Nathan Gerbe, Left Wing, CAR"}}, {"geometry": {"type": "Point", "coordinates": [-89.2476823, 48.3808951]}, "type": "Feature", "properties": {"placeName": "Thunder Bay, ON", "playerCount": 2, "players": "Eric Staal, Center, CAR<br>Jordan Staal, Center, CAR"}}, {"geometry": {"type": "Point", "coordinates": [-72.4334173, 41.7689878]}, "type": "Feature", "properties": {"placeName": "Bolton, CT", "playerCount": 1, "players": "Ron Hainsey, Defenseman, CAR"}}, {"geometry": {"type": "Point", "coordinates": [-76.4859544, 44.2311717]}, "type": "Feature", "properties": {"placeName": "Kingston, ON", "playerCount": 1, "players": "Jay McClement, Center, CAR"}}, {"geometry": {"type": "Point", "coordinates": [14.9998922, 60.7303082]}, "type": "Feature", "properties": {"placeName": "Leksand, Sweden", "playerCount": 1, "players": "Victor Rask, Center, CAR"}}, {"geometry": {"type": "Point", "coordinates": [18.7013584, 59.7595841]}, "type": "Feature", "properties": {"placeName": "Norrt\u00e4lje, Sweden", "playerCount": 1, "players": "Eddie Lack, Goalie, CAR"}}, {"geometry": {"type": "Point", "coordinates": [14.4378005, 50.0755381]}, "type": "Feature", "properties": {"placeName": "Prague, Czech Republic", "playerCount": 1, "players": "Andrej Nestrasil, Center, CAR"}}, {"geometry": {"type": "Point", "coordinates": [18.0685808, 59.32932349999999]}, "type": "Feature", "properties": {"placeName": "Stockholm, Sweden", "playerCount": 1, "players": "Joakim Nordstrom, Left Wing, CAR"}}, {"geometry": {"type": "Point", "coordinates": [17.6627635, 49.2244365]}, "type": "Feature", "properties": {"placeName": "Zlin, Czech Republic", "playerCount": 1, "players": "Michal Jordan, Defenseman, CAR"}}, {"geometry": {"type": "Point", "coordinates": [-110.7753809, 52.0097703]}, "type": "Feature", "properties": {"placeName": "Consort, AB", "playerCount": 1, "players": "Riley Nash, Center, CAR"}}, {"geometry": {"type": "Point", "coordinates": [-79.3831843, 43.653226]}, "type": "Feature", "properties": {"placeName": "Toronto, ON", "playerCount": 2, "players": "Phillip Di Giuseppe, Left Wing, CAR<br>Jeff Skinner, Left Wing, CAR"}}, {"geometry": {"type": "Point", "coordinates": [-93.0275802, 44.8759802]}, "type": "Feature", "properties": {"placeName": "South St.Paul, MN", "playerCount": 1, "players": "Justin Faulk, Defenseman, CAR"}}, {"geometry": {"type": "Point", "coordinates": [-86.158068, 39.768403]}, "type": "Feature", "properties": {"placeName": "Indianapolis, IN", "playerCount": 1, "players": "John-Michael Liles, Defenseman, CAR"}}, {"geometry": {"type": "Point", "coordinates": [-112.84184, 49.69349]}, "type": "Feature", "properties": {"placeName": "Lethbridge, AB", "playerCount": 1, "players": "Kris Versteeg, Right Wing, CAR"}}, {"geometry": {"type": "Point", "coordinates": [21.6887028, 65.8251188]}, "type": "Feature", "properties": {"placeName": "Boden, Sweden", "playerCount": 1, "players": "Elias Lindholm, Center, CAR"}}, {"geometry": {"type": "Point", "coordinates": [-79.7624177, 43.7315479]}, "type": "Feature", "properties": {"placeName": "Brampton, ON", "playerCount": 1, "players": "Chris Terry, Left Wing, CAR"}}, {"geometry": {"type": "Point", "coordinates": [-71.0588801, 42.3600825]}, "type": "Feature", "properties": {"placeName": "Boston, MA", "playerCount": 1, "players": "Noah Hanifin, Defenseman, CAR"}}]}