{"type": "FeatureCollection", "features": [{"geometry": {"type": "Point", "coordinates": [14.1067465, 50.1416986]}, "type": "Feature", "properties": {"placeName": "Kladno, Czech Republic", "playerCount": 1, "players": "Jaromir Jagr, Right Wing, FLA"}}, {"geometry": {"type": "Point", "coordinates": [-113.4909267, 53.544389]}, "type": "Feature", "properties": {"placeName": "Edmonton, AB", "playerCount": 1, "players": "Alex Petrovic, Defenseman, FLA"}}, {"geometry": {"type": "Point", "coordinates": [-83.03636329999999, 42.3149367]}, "type": "Feature", "properties": {"placeName": "Windsor, ON", "playerCount": 1, "players": "Aaron Ekblad, Defenseman, FLA"}}, {"geometry": {"type": "Point", "coordinates": [-78.86579119999999, 43.8970929]}, "type": "Feature", "properties": {"placeName": "Oshawa, ON", "playerCount": 1, "players": "Shawn Thornton, Left Wing, FLA"}}, {"geometry": {"type": "Point", "coordinates": [-93.2650108, 44.977753]}, "type": "Feature", "properties": {"placeName": "Minneapolis, MN", "playerCount": 1, "players": "Nick Bjugstad, Center, FLA"}}, {"geometry": {"type": "Point", "coordinates": [-97.1374937, 49.8997541]}, "type": "Feature", "properties": {"placeName": "Winnipeg, MB", "playerCount": 1, "players": "Quinton Howden, Center, FLA"}}, {"geometry": {"type": "Point", "coordinates": [-74.004948, 45.775357]}, "type": "Feature", "properties": {"placeName": "Saint-Jerome, QC", "playerCount": 1, "players": "Jonathan Huberdeau, Left Wing, FLA"}}, {"geometry": {"type": "Point", "coordinates": [-79.4956974, 43.614627]}, "type": "Feature", "properties": {"placeName": "Mimico, ON", "playerCount": 1, "players": "Dave Bolland, Center, FLA"}}, {"geometry": {"type": "Point", "coordinates": [-79.9958864, 40.44062479999999]}, "type": "Feature", "properties": {"placeName": "Pittsburgh, PA", "playerCount": 1, "players": "Vincent Trocheck, Center, FLA"}}, {"geometry": {"type": "Point", "coordinates": [-75.69719309999999, 45.4215296]}, "type": "Feature", "properties": {"placeName": "Ottawa, ON", "playerCount": 1, "players": "Erik Gudbranson, Defenseman, FLA"}}, {"geometry": {"type": "Point", "coordinates": [-73.567256, 45.5016889]}, "type": "Feature", "properties": {"placeName": "Montreal, QC", "playerCount": 1, "players": "Roberto Luongo, Goalie, FLA"}}, {"geometry": {"type": "Point", "coordinates": [-81.03549819999999, 46.5513927]}, "type": "Feature", "properties": {"placeName": "Sudbury, ON", "playerCount": 1, "players": "Derek MacKenzie, Center, FLA"}}, {"geometry": {"type": "Point", "coordinates": [-59.9570044, 46.1969191]}, "type": "Feature", "properties": {"placeName": "Glace Bay, NS", "playerCount": 1, "players": "Logan Shaw, Right Wing, FLA"}}, {"geometry": {"type": "Point", "coordinates": [-83.7430378, 42.2808256]}, "type": "Feature", "properties": {"placeName": "Ann Arbor, MI", "playerCount": 1, "players": "Steven Kampfer, Defenseman, FLA"}}, {"geometry": {"type": "Point", "coordinates": [-119.550428, 49.1823264]}, "type": "Feature", "properties": {"placeName": "Oliver, BC", "playerCount": 1, "players": "Corban Knight, Center, FLA"}}, {"geometry": {"type": "Point", "coordinates": [-79.3831843, 43.653226]}, "type": "Feature", "properties": {"placeName": "Toronto, ON", "playerCount": 2, "players": "Brandon Pirri, Center, FLA<br>Reilly Smith, Right Wing, FLA"}}, {"geometry": {"type": "Point", "coordinates": [-87.6297982, 41.8781136]}, "type": "Feature", "properties": {"placeName": "Chicago, IL", "playerCount": 1, "players": "Al Montoya, Goalie, FLA"}}, {"geometry": {"type": "Point", "coordinates": [-127.084755, 50.590142]}, "type": "Feature", "properties": {"placeName": "Port Mcneill, BC", "playerCount": 1, "players": "Willie Mitchell, Defenseman, FLA"}}, {"geometry": {"type": "Point", "coordinates": [-81.62323330000001, 42.95542]}, "type": "Feature", "properties": {"placeName": "Strathroy, ON", "playerCount": 1, "players": "Brian Campbell, Defenseman, FLA"}}, {"geometry": {"type": "Point", "coordinates": [23.7610254, 61.4981508]}, "type": "Feature", "properties": {"placeName": "Tampere, Finland", "playerCount": 1, "players": "Aleksander Barkov, Center, FLA"}}, {"geometry": {"type": "Point", "coordinates": [23.9475943, 64.2578332]}, "type": "Feature", "properties": {"placeName": "Kalajoki, Finland", "playerCount": 1, "players": "Jussi Jokinen, Left Wing, FLA"}}, {"geometry": {"type": "Point", "coordinates": [39.5981225, 52.6121996]}, "type": "Feature", "properties": {"placeName": "Lipetsk, Russia", "playerCount": 1, "players": "Dmitry Kulikov, Defenseman, FLA"}}]}