{"type": "FeatureCollection", "features": [{"geometry": {"type": "Point", "coordinates": [-93.3499489, 44.8896866]}, "type": "Feature", "properties": {"placeName": "Edina, MN", "playerCount": 1, "players": "Jamie McBain, Defenseman, LAK"}}, {"geometry": {"type": "Point", "coordinates": [-104.990251, 39.7392358]}, "type": "Feature", "properties": {"placeName": "Denver, CO", "playerCount": 1, "players": "Nick Shore, Center, LAK"}}, {"geometry": {"type": "Point", "coordinates": [-73.89075559999999, 45.4948893]}, "type": "Feature", "properties": {"placeName": "Ile Bizard, QC", "playerCount": 1, "players": "Vincent Lecavalier, Center, LAK"}}, {"geometry": {"type": "Point", "coordinates": [-92.1004852, 46.78667189999999]}, "type": "Feature", "properties": {"placeName": "Duluth, MN", "playerCount": 1, "players": "Derek Forbort, Defenseman, LAK"}}, {"geometry": {"type": "Point", "coordinates": [-79.0867579, 43.83841169999999]}, "type": "Feature", "properties": {"placeName": "Pickering, ON", "playerCount": 1, "players": "Andy Andreoff, Left Wing, LAK"}}, {"geometry": {"type": "Point", "coordinates": [-106.6700458, 52.1332144]}, "type": "Feature", "properties": {"placeName": "Saskatoon, SK", "playerCount": 1, "players": "Luke Schenn, Defenseman, LAK"}}, {"geometry": {"type": "Point", "coordinates": [-80.4507835, 43.2854723]}, "type": "Feature", "properties": {"placeName": "Ayr, ON", "playerCount": 1, "players": "Kyle Clifford, Left Wing, LAK"}}, {"geometry": {"type": "Point", "coordinates": [-111.8910474, 40.7607793]}, "type": "Feature", "properties": {"placeName": "Salt Lake City, UT", "playerCount": 1, "players": "Trevor Lewis, Center, LAK"}}, {"geometry": {"type": "Point", "coordinates": [-79.2317521, 43.7764258]}, "type": "Feature", "properties": {"placeName": "Scarborough, ON", "playerCount": 1, "players": "Tyler Toffoli, Center, LAK"}}, {"geometry": {"type": "Point", "coordinates": [-76.5018807, 42.4439614]}, "type": "Feature", "properties": {"placeName": "Ithaca, NY", "playerCount": 1, "players": "Dustin Brown, Right Wing, LAK"}}, {"geometry": {"type": "Point", "coordinates": [18.0335209, 48.884936]}, "type": "Feature", "properties": {"placeName": "Trencin, Slovakia", "playerCount": 1, "players": "Marian Gaborik, Right Wing, LAK"}}, {"geometry": {"type": "Point", "coordinates": [-87.84061919999999, 42.0111412]}, "type": "Feature", "properties": {"placeName": "Park Ridge, IL", "playerCount": 1, "players": "Michael Mersch, Left Wing, LAK"}}, {"geometry": {"type": "Point", "coordinates": [-105.9890338, 51.2628546]}, "type": "Feature", "properties": {"placeName": "Davidson, SK", "playerCount": 1, "players": "Brayden McNabb, Defenseman, LAK"}}, {"geometry": {"type": "Point", "coordinates": [-73.064036, 41.2306979]}, "type": "Feature", "properties": {"placeName": "Milford, CT", "playerCount": 1, "players": "Jonathan Quick, Goalie, LAK"}}, {"geometry": {"type": "Point", "coordinates": [-80.47714719999999, 43.4129238]}, "type": "Feature", "properties": {"placeName": "Kitchener, ON", "playerCount": 1, "players": "Tanner Pearson, Left Wing, LAK"}}, {"geometry": {"type": "Point", "coordinates": [-123.0732801, 49.3269904]}, "type": "Feature", "properties": {"placeName": "North Vancouver, BC", "playerCount": 1, "players": "Jordan Weal, Center, LAK"}}, {"geometry": {"type": "Point", "coordinates": [18.0685808, 59.32932349999999]}, "type": "Feature", "properties": {"placeName": "Stockholm, Sweden", "playerCount": 1, "players": "Jhonas Enroth, Goalie, LAK"}}, {"geometry": {"type": "Point", "coordinates": [-80.74716509999999, 43.1314966]}, "type": "Feature", "properties": {"placeName": "Woodstock, ON", "playerCount": 1, "players": "Jake Muzzin, Defenseman, LAK"}}, {"geometry": {"type": "Point", "coordinates": [-123.1207375, 49.2827291]}, "type": "Feature", "properties": {"placeName": "Vancouver, BC", "playerCount": 1, "players": "Milan Lucic, Left Wing, LAK"}}, {"geometry": {"type": "Point", "coordinates": [-83.1499322, 42.65836609999999]}, "type": "Feature", "properties": {"placeName": "Rochester Hills, MI", "playerCount": 1, "players": "Alec Martinez, Defenseman, LAK"}}, {"geometry": {"type": "Point", "coordinates": [-81.243177, 42.9869502]}, "type": "Feature", "properties": {"placeName": "London, ON", "playerCount": 2, "players": "Jeff Carter, Center, LAK<br>Drew Doughty, Defenseman, LAK"}}, {"geometry": {"type": "Point", "coordinates": [-84.7463757, 42.7533685]}, "type": "Feature", "properties": {"placeName": "Grand Ledge, MI", "playerCount": 1, "players": "Matt Greene, Defenseman, LAK"}}, {"geometry": {"type": "Point", "coordinates": [14.0526057, 46.4367047]}, "type": "Feature", "properties": {"placeName": "Jesenice, Slovenia", "playerCount": 1, "players": "Anze Kopitar, Center, LAK"}}, {"geometry": {"type": "Point", "coordinates": [-108.4280261, 54.1316746]}, "type": "Feature", "properties": {"placeName": "Meadow Lake, SK", "playerCount": 1, "players": "Dwight King, Left Wing, LAK"}}, {"geometry": {"type": "Point", "coordinates": [6.640814799999999, 51.4516041]}, "type": "Feature", "properties": {"placeName": "Moers, Germany", "playerCount": 1, "players": "Christian Ehrhoff, Defenseman, LAK"}}]}