{"type": "FeatureCollection", "features": [{"geometry": {"type": "Point", "coordinates": [-110.7200371, 54.2681766]}, "type": "Feature", "properties": {"placeName": "Bonnyville, AB", "playerCount": 1, "players": "Justin Fontaine, Right Wing, MIN"}}, {"geometry": {"type": "Point", "coordinates": [-102.804654, 50.929452]}, "type": "Feature", "properties": {"placeName": "Melville, SK", "playerCount": 1, "players": "Jarret Stoll, Center, MIN"}}, {"geometry": {"type": "Point", "coordinates": [-93.2650108, 44.977753]}, "type": "Feature", "properties": {"placeName": "Minneapolis, MN", "playerCount": 1, "players": "Zach Parise, Left Wing, MIN"}}, {"geometry": {"type": "Point", "coordinates": [13.5114977, 59.4021806]}, "type": "Feature", "properties": {"placeName": "Karlstad, Sweden", "playerCount": 1, "players": "Jonas Brodin, Defenseman, MIN"}}, {"geometry": {"type": "Point", "coordinates": [-93.0081479, 45.0853814]}, "type": "Feature", "properties": {"placeName": "White Bear Lake, MN", "playerCount": 1, "players": "Ryan Carter, Center, MIN"}}, {"geometry": {"type": "Point", "coordinates": [-106.6700458, 52.1332144]}, "type": "Feature", "properties": {"placeName": "Saskatoon, SK", "playerCount": 1, "players": "Darcy Kuemper, Goalie, MIN"}}, {"geometry": {"type": "Point", "coordinates": [-70.9203793, 42.21343419999999]}, "type": "Feature", "properties": {"placeName": "E. Weymouth, MA", "playerCount": 1, "players": "Charlie Coyle, Center, MIN"}}, {"geometry": {"type": "Point", "coordinates": [-113.4909267, 53.544389]}, "type": "Feature", "properties": {"placeName": "Edmonton, AB", "playerCount": 1, "players": "Jared Spurgeon, Defenseman, MIN"}}, {"geometry": {"type": "Point", "coordinates": [21.7974444, 61.4851997]}, "type": "Feature", "properties": {"placeName": "Pori, Finland", "playerCount": 1, "players": "Erik Haula, Center, MIN"}}, {"geometry": {"type": "Point", "coordinates": [-104.6188944, 50.4452112]}, "type": "Feature", "properties": {"placeName": "Regina, SK", "playerCount": 2, "players": "Devan Dubnyk, Goalie, MIN<br>Matt Dumba, Defenseman, MIN"}}, {"geometry": {"type": "Point", "coordinates": [-73.4400814, 45.7532854]}, "type": "Feature", "properties": {"placeName": "Repentigny, QC", "playerCount": 1, "players": "Jason Pominville, Right Wing, MIN"}}, {"geometry": {"type": "Point", "coordinates": [-93.56911219999999, 45.33772829999999]}, "type": "Feature", "properties": {"placeName": "Elk River, MN", "playerCount": 1, "players": "Nate Prosser, Defenseman, MIN"}}, {"geometry": {"type": "Point", "coordinates": [9.5319859, 46.8507835]}, "type": "Feature", "properties": {"placeName": "Chur, Switzerland", "playerCount": 1, "players": "Nino Niederreiter, Right Wing, MIN"}}, {"geometry": {"type": "Point", "coordinates": [-73.567256, 45.5016889]}, "type": "Feature", "properties": {"placeName": "Montreal, QC", "playerCount": 1, "players": "Marco Scandella, Defenseman, MIN"}}, {"geometry": {"type": "Point", "coordinates": [22.2666303, 60.4518126]}, "type": "Feature", "properties": {"placeName": "Turku, Finland", "playerCount": 1, "players": "Mikko Koivu, Center, MIN"}}, {"geometry": {"type": "Point", "coordinates": [-89.4012302, 43.0730517]}, "type": "Feature", "properties": {"placeName": "Madison, WI", "playerCount": 1, "players": "Ryan Suter, Defenseman, MIN"}}, {"geometry": {"type": "Point", "coordinates": [-79.3831843, 43.653226]}, "type": "Feature", "properties": {"placeName": "Toronto, ON", "playerCount": 1, "players": "Chris Porter, Left Wing, MIN"}}, {"geometry": {"type": "Point", "coordinates": [25.4714526, 65.0126148]}, "type": "Feature", "properties": {"placeName": "Oulu, Finland", "playerCount": 1, "players": "Mikael Granlund, Center, MIN"}}, {"geometry": {"type": "Point", "coordinates": [-87.6297982, 41.8781136]}, "type": "Feature", "properties": {"placeName": "Chicago, IL", "playerCount": 1, "players": "Mike Reilly, Defenseman, MIN"}}, {"geometry": {"type": "Point", "coordinates": [-117.9289469, 33.6189101]}, "type": "Feature", "properties": {"placeName": "Newport Beach, CA", "playerCount": 1, "players": "Jason Zucker, Left Wing, MIN"}}, {"geometry": {"type": "Point", "coordinates": [24.9410248, 60.17332440000001]}, "type": "Feature", "properties": {"placeName": "Helsinki, Finland", "playerCount": 1, "players": "Niklas Backstrom, Goalie, MIN"}}, {"geometry": {"type": "Point", "coordinates": [16.3738189, 48.2081743]}, "type": "Feature", "properties": {"placeName": "Vienna, Austria", "playerCount": 1, "players": "Thomas Vanek, Left Wing, MIN"}}]}