{"type": "FeatureCollection", "features": [{"geometry": {"type": "Point", "coordinates": [14.1067465, 50.1416986]}, "type": "Feature", "properties": {"placeName": "Kladno, Czech Republic", "playerCount": 1, "players": "Tomas Plekanec, Center, MTL"}}, {"geometry": {"type": "Point", "coordinates": [-113.4909267, 53.544389]}, "type": "Feature", "properties": {"placeName": "Edmonton, AB", "playerCount": 1, "players": "Brendan Gallagher, Right Wing, MTL"}}, {"geometry": {"type": "Point", "coordinates": [-83.0302033, 42.5803122]}, "type": "Feature", "properties": {"placeName": "Sterling Heights, MI", "playerCount": 1, "players": "Greg Pateryn, Defenseman, MTL"}}, {"geometry": {"type": "Point", "coordinates": [12.465726, 55.673514]}, "type": "Feature", "properties": {"placeName": "Rodovre, Denmark", "playerCount": 1, "players": "Lars Eller, Center, MTL"}}, {"geometry": {"type": "Point", "coordinates": [-93.2982799, 44.840798]}, "type": "Feature", "properties": {"placeName": "Bloomington, MN", "playerCount": 1, "players": "Tom Gilbert, Defenseman, MTL"}}, {"geometry": {"type": "Point", "coordinates": [-97.1374937, 49.8997541]}, "type": "Feature", "properties": {"placeName": "Winnipeg, MB", "playerCount": 1, "players": "Dale Weise, Right Wing, MTL"}}, {"geometry": {"type": "Point", "coordinates": [-79.2317521, 43.7764258]}, "type": "Feature", "properties": {"placeName": "Scarborough, ON", "playerCount": 1, "players": "Devante Smith-Pelly, Right Wing, MTL"}}, {"geometry": {"type": "Point", "coordinates": [-93.27772259999999, 44.7677424]}, "type": "Feature", "properties": {"placeName": "Burnsville, MN", "playerCount": 1, "players": "Jarred Tinordi, Defenseman, MTL"}}, {"geometry": {"type": "Point", "coordinates": [49.4198344, 53.5086002]}, "type": "Feature", "properties": {"placeName": "Togliatti, Russia", "playerCount": 1, "players": "Alexei Emelin, Defenseman, MTL"}}, {"geometry": {"type": "Point", "coordinates": [-113.9033672, 53.5427846]}, "type": "Feature", "properties": {"placeName": "Spruce Grove, AB", "playerCount": 1, "players": "Ben Scrivens, Goalie, MTL"}}, {"geometry": {"type": "Point", "coordinates": [-125.316667, 52.466667]}, "type": "Feature", "properties": {"placeName": "Anahim Lake, BC", "playerCount": 1, "players": "Carey Price, Goalie, MTL"}}, {"geometry": {"type": "Point", "coordinates": [-73.4948445, 41.146763]}, "type": "Feature", "properties": {"placeName": "New Canaan, CT", "playerCount": 1, "players": "Max Pacioretty, Left Wing, MTL"}}, {"geometry": {"type": "Point", "coordinates": [-75.69719309999999, 45.4215296]}, "type": "Feature", "properties": {"placeName": "Ottawa, ON", "playerCount": 1, "players": "Paul Byron, Left Wing, MTL"}}, {"geometry": {"type": "Point", "coordinates": [38.6815131, 55.3238424]}, "type": "Feature", "properties": {"placeName": "Voskresensk, Russia", "playerCount": 1, "players": "Andrei Markov, Defenseman, MTL"}}, {"geometry": {"type": "Point", "coordinates": [18.1448099, 49.5994699]}, "type": "Feature", "properties": {"placeName": "Koprivnice, Czech Republic", "playerCount": 1, "players": "Tomas Fleischmann, Left Wing, MTL"}}, {"geometry": {"type": "Point", "coordinates": [-73.4786541, 45.4853584]}, "type": "Feature", "properties": {"placeName": "Greenfield Park, QC", "playerCount": 1, "players": "Torrey Mitchell, Center, MTL"}}, {"geometry": {"type": "Point", "coordinates": [-87.9064736, 43.0389025]}, "type": "Feature", "properties": {"placeName": "Milwaukee, WI", "playerCount": 1, "players": "Alex Galchenyuk, Center, MTL"}}, {"geometry": {"type": "Point", "coordinates": [-71.4245049, 42.20009659999999]}, "type": "Feature", "properties": {"placeName": "Holliston, MA", "playerCount": 1, "players": "Mike Condon, Goalie, MTL"}}, {"geometry": {"type": "Point", "coordinates": [-73.567256, 45.5016889]}, "type": "Feature", "properties": {"placeName": "Montreal, QC", "playerCount": 1, "players": "Mark Barberio, Defenseman, MTL"}}, {"geometry": {"type": "Point", "coordinates": [-113.2957365, 53.5412083]}, "type": "Feature", "properties": {"placeName": "Sherwood Park, AB", "playerCount": 1, "players": "Daniel Carr, Left Wing, MTL"}}, {"geometry": {"type": "Point", "coordinates": [-79.3831843, 43.653226]}, "type": "Feature", "properties": {"placeName": "Toronto, ON", "playerCount": 1, "players": "P.K. Subban, Defenseman, MTL"}}, {"geometry": {"type": "Point", "coordinates": [-83.7430378, 42.2808256]}, "type": "Feature", "properties": {"placeName": "Ann Arbor, MI", "playerCount": 1, "players": "Jeff Petry, Defenseman, MTL"}}, {"geometry": {"type": "Point", "coordinates": [-71.0465638, 42.53869]}, "type": "Feature", "properties": {"placeName": "Lynnfield, MA", "playerCount": 1, "players": "Brian Flynn, Center, MTL"}}, {"geometry": {"type": "Point", "coordinates": [-71.6320142, 46.5392679]}, "type": "Feature", "properties": {"placeName": "Laurier-Station, QC", "playerCount": 1, "players": "David Desharnais, Center, MTL"}}, {"geometry": {"type": "Point", "coordinates": [-81.62323330000001, 42.95542]}, "type": "Feature", "properties": {"placeName": "Strathroy, ON", "playerCount": 1, "players": "Nathan Beaulieu, Defenseman, MTL"}}, {"geometry": {"type": "Point", "coordinates": [8.541694, 47.3768866]}, "type": "Feature", "properties": {"placeName": "Zurich, Switzerland", "playerCount": 1, "players": "Sven Andrighetto, Right Wing, MTL"}}]}