{"type": "FeatureCollection", "features": [{"geometry": {"type": "Point", "coordinates": [-93.27772259999999, 44.7677424]}, "type": "Feature", "properties": {"placeName": "Burnsville, MN", "playerCount": 1, "players": "J.T. Brown, Right Wing, TBL"}}, {"geometry": {"type": "Point", "coordinates": [21.4800364, 65.316698]}, "type": "Feature", "properties": {"placeName": "Pitea, Sweden", "playerCount": 1, "players": "Mattias Ohlund, Defenseman, TBL"}}, {"geometry": {"type": "Point", "coordinates": [-104.990251, 39.7392358]}, "type": "Feature", "properties": {"placeName": "Denver, CO", "playerCount": 1, "players": "Ben Bishop, Goalie, TBL"}}, {"geometry": {"type": "Point", "coordinates": [-122.802962, 49.0253085]}, "type": "Feature", "properties": {"placeName": "White Rock, BC", "playerCount": 1, "players": "Jason Garrison, Defenseman, TBL"}}, {"geometry": {"type": "Point", "coordinates": [-117.4260466, 47.6587802]}, "type": "Feature", "properties": {"placeName": "Spokane, WA", "playerCount": 1, "players": "Tyler Johnson, Center, TBL"}}, {"geometry": {"type": "Point", "coordinates": [65.5250172, 57.1612975]}, "type": "Feature", "properties": {"placeName": "Tyumen, Russia", "playerCount": 1, "players": "Andrei Vasilevskiy, Goalie, TBL"}}, {"geometry": {"type": "Point", "coordinates": [37.6173, 55.755826]}, "type": "Feature", "properties": {"placeName": "Moscow, Russia", "playerCount": 1, "players": "Nikita Kucherov, Right Wing, TBL"}}, {"geometry": {"type": "Point", "coordinates": [61.4368431, 55.1644419]}, "type": "Feature", "properties": {"placeName": "Chelyabinsk, Russia", "playerCount": 1, "players": "Nikita Nesterov, Defenseman, TBL"}}, {"geometry": {"type": "Point", "coordinates": [-79.3370188, 43.8561002]}, "type": "Feature", "properties": {"placeName": "Markham, ON", "playerCount": 1, "players": "Steven Stamkos, Center, TBL"}}, {"geometry": {"type": "Point", "coordinates": [13.3736371, 49.7384314]}, "type": "Feature", "properties": {"placeName": "Plzen, Czech Republic", "playerCount": 1, "players": "Andrej Sustr, Defenseman, TBL"}}, {"geometry": {"type": "Point", "coordinates": [-77.6109219, 43.16103]}, "type": "Feature", "properties": {"placeName": "Rochester, NY", "playerCount": 1, "players": "Ryan Callahan, Right Wing, TBL"}}, {"geometry": {"type": "Point", "coordinates": [-71.35539179999999, 46.765975]}, "type": "Feature", "properties": {"placeName": "Cap-Rouge, QC", "playerCount": 1, "players": "Jonathan Marchessault, Center, TBL"}}, {"geometry": {"type": "Point", "coordinates": [38.1132562, 55.5974912]}, "type": "Feature", "properties": {"placeName": "Zhukovskiy, Russia", "playerCount": 1, "players": "Vladislav Namestnikov, Center, TBL"}}, {"geometry": {"type": "Point", "coordinates": [14.1616418, 58.424323]}, "type": "Feature", "properties": {"placeName": "Tibro, Sweden", "playerCount": 1, "players": "Anton Stralman, Defenseman, TBL"}}, {"geometry": {"type": "Point", "coordinates": [-108.4215787, 49.6463379]}, "type": "Feature", "properties": {"placeName": "Shaunavon, SK", "playerCount": 1, "players": "Braydon Coburn, Defenseman, TBL"}}, {"geometry": {"type": "Point", "coordinates": [-70.889759, 42.2418172]}, "type": "Feature", "properties": {"placeName": "Hingham, MA", "playerCount": 1, "players": "Brian Boyle, Center, TBL"}}, {"geometry": {"type": "Point", "coordinates": [-63.5753196, 44.6488625]}, "type": "Feature", "properties": {"placeName": "Halifax, NS", "playerCount": 1, "players": "Alex Killorn, Center, TBL"}}, {"geometry": {"type": "Point", "coordinates": [-83.1782587, 42.1394858]}, "type": "Feature", "properties": {"placeName": "Trenton, MI", "playerCount": 1, "players": "Erik Condra, Right Wing, TBL"}}, {"geometry": {"type": "Point", "coordinates": [-149.9002778, 61.2180556]}, "type": "Feature", "properties": {"placeName": "Anchorage, AK", "playerCount": 1, "players": "Matthew Carle, Defenseman, TBL"}}, {"geometry": {"type": "Point", "coordinates": [25.0377329, 60.2933664]}, "type": "Feature", "properties": {"placeName": "Vantaa, Finland", "playerCount": 1, "players": "Valtteri Filppula, Center, TBL"}}, {"geometry": {"type": "Point", "coordinates": [18.7166166, 63.29004740000001]}, "type": "Feature", "properties": {"placeName": "Ornskoldsvik, Sweden", "playerCount": 1, "players": "Victor Hedman, Defenseman, TBL"}}, {"geometry": {"type": "Point", "coordinates": [18.3673216, 49.6819305]}, "type": "Feature", "properties": {"placeName": "Frydek-Mistek, Czech Republic", "playerCount": 1, "players": "Ondrej Palat, Left Wing, TBL"}}, {"geometry": {"type": "Point", "coordinates": [-64.4869016, 48.8316351]}, "type": "Feature", "properties": {"placeName": "Gaspe, QC", "playerCount": 1, "players": "Cedric Paquette, Center, TBL"}}]}