{"type": "FeatureCollection", "features": [{"geometry": {"type": "Point", "coordinates": [14.1067465, 50.1416986]}, "type": "Feature", "properties": {"placeName": "Kladno, Czech Republic", "playerCount": 1, "players": "Ondrej Pavelec, Goalie, WPG"}}, {"geometry": {"type": "Point", "coordinates": [-72.4842824, 45.8802909]}, "type": "Feature", "properties": {"placeName": "Drummondville, QC", "playerCount": 1, "players": "Mathieu Perreault, Center, WPG"}}, {"geometry": {"type": "Point", "coordinates": [-113.4909267, 53.544389]}, "type": "Feature", "properties": {"placeName": "Edmonton, AB", "playerCount": 1, "players": "Bryan Little, Center, WPG"}}, {"geometry": {"type": "Point", "coordinates": [49.06608060000001, 55.8304307]}, "type": "Feature", "properties": {"placeName": "Kazan, Russia", "playerCount": 1, "players": "Alexander Burmistrov, Center, WPG"}}, {"geometry": {"type": "Point", "coordinates": [-79.8660914, 43.25002080000001]}, "type": "Feature", "properties": {"placeName": "Hamilton, ON", "playerCount": 1, "players": "Ben Chiarot, Defenseman, WPG"}}, {"geometry": {"type": "Point", "coordinates": [-84.3453169, 46.4952996]}, "type": "Feature", "properties": {"placeName": "Sault Ste. Marie, ON", "playerCount": 1, "players": "Chris Thorburn, Right Wing, WPG"}}, {"geometry": {"type": "Point", "coordinates": [18.2920615, 62.9297115]}, "type": "Feature", "properties": {"placeName": "Nordingra, Sweden", "playerCount": 1, "players": "Toby Enstrom, Defenseman, WPG"}}, {"geometry": {"type": "Point", "coordinates": [-75.5942867, 45.4473421]}, "type": "Feature", "properties": {"placeName": "Gloucester, ON", "playerCount": 1, "players": "Grant Clitsome, Defenseman, WPG"}}, {"geometry": {"type": "Point", "coordinates": [21.7974444, 61.4851997]}, "type": "Feature", "properties": {"placeName": "Pori, Finland", "playerCount": 1, "players": "Joel Armia, Right Wing, WPG"}}, {"geometry": {"type": "Point", "coordinates": [-83.1338214, 42.680588]}, "type": "Feature", "properties": {"placeName": "Rochester, MI", "playerCount": 1, "players": "Jacob Trouba, Defenseman, WPG"}}, {"geometry": {"type": "Point", "coordinates": [-95.3698028, 29.7604267]}, "type": "Feature", "properties": {"placeName": "Houston, TX", "playerCount": 1, "players": "Tyler Myers, Defenseman, WPG"}}, {"geometry": {"type": "Point", "coordinates": [-83.48823469999999, 42.5750853]}, "type": "Feature", "properties": {"placeName": "Commerce, MI", "playerCount": 1, "players": "Connor Hellebuyck, Goalie, WPG"}}, {"geometry": {"type": "Point", "coordinates": [-87.9064736, 43.0389025]}, "type": "Feature", "properties": {"placeName": "Milwaukee, WI", "playerCount": 1, "players": "Drew Stafford, Right Wing, WPG"}}, {"geometry": {"type": "Point", "coordinates": [-80.47714719999999, 43.4129238]}, "type": "Feature", "properties": {"placeName": "Kitchener, ON", "playerCount": 1, "players": "Mark Scheifele, Center, WPG"}}, {"geometry": {"type": "Point", "coordinates": [-95.762766, 48.8460926]}, "type": "Feature", "properties": {"placeName": "Roseau, MN", "playerCount": 1, "players": "Dustin Byfuglien, Defenseman, WPG"}}, {"geometry": {"type": "Point", "coordinates": [-53.11182489999999, 48.6533449]}, "type": "Feature", "properties": {"placeName": "Bonavista, NL", "playerCount": 1, "players": "Adam Pardy, Defenseman, WPG"}}, {"geometry": {"type": "Point", "coordinates": [-83.7430378, 42.2808256]}, "type": "Feature", "properties": {"placeName": "Ann Arbor, MI", "playerCount": 1, "players": "Andrew Copp, Center, WPG"}}, {"geometry": {"type": "Point", "coordinates": [-79.6903316, 44.38935559999999]}, "type": "Feature", "properties": {"placeName": "Barrie, ON", "playerCount": 1, "players": "Michael Hutchinson, Goalie, WPG"}}, {"geometry": {"type": "Point", "coordinates": [-122.598398, 49.2193226]}, "type": "Feature", "properties": {"placeName": "Maple Ridge, BC", "playerCount": 1, "players": "Andrew Ladd, Left Wing, WPG"}}, {"geometry": {"type": "Point", "coordinates": [-93.4555093, 45.0105194]}, "type": "Feature", "properties": {"placeName": "Plymouth, MN", "playerCount": 1, "players": "Blake Wheeler, Right Wing, WPG"}}, {"geometry": {"type": "Point", "coordinates": [-92.4801989, 44.0121221]}, "type": "Feature", "properties": {"placeName": "Rochester, MN", "playerCount": 1, "players": "Mark Stuart, Defenseman, WPG"}}, {"geometry": {"type": "Point", "coordinates": [9.921747, 57.0488195]}, "type": "Feature", "properties": {"placeName": "Aalborg, Denmark", "playerCount": 1, "players": "Nikolaj Ehlers, Right Wing, WPG"}}, {"geometry": {"type": "Point", "coordinates": [-79.41107939999999, 43.7615377]}, "type": "Feature", "properties": {"placeName": "North York, ON", "playerCount": 1, "players": "Anthony Peluso, Right Wing, WPG"}}]}