{"type": "FeatureCollection", "features": [{"geometry": {"type": "Point", "coordinates": [-102.0291568, 49.9031185]}, "type": "Feature", "properties": {"placeName": "Wawota, SK", "playerCount": 1, "players": "Brooks Laich, Center, WSH"}}, {"geometry": {"type": "Point", "coordinates": [12.1181047, 47.8571272]}, "type": "Feature", "properties": {"placeName": "Rosenheim, Germany", "playerCount": 1, "players": "Philipp Grubauer, Goalie, WSH"}}, {"geometry": {"type": "Point", "coordinates": [-78.1677363, 43.9593373]}, "type": "Feature", "properties": {"placeName": "Cobourg, ON", "playerCount": 1, "players": "Justin Williams, Right Wing, WSH"}}, {"geometry": {"type": "Point", "coordinates": [12.8300802, 55.8703477]}, "type": "Feature", "properties": {"placeName": "Landskrona, Sweden", "playerCount": 1, "players": "Marcus Johansson, Left Wing, WSH"}}, {"geometry": {"type": "Point", "coordinates": [-80.47714719999999, 43.4129238]}, "type": "Feature", "properties": {"placeName": "Kitchener, ON", "playerCount": 1, "players": "Michael Latta, Center, WSH"}}, {"geometry": {"type": "Point", "coordinates": [-110.0061451, 53.2779625]}, "type": "Feature", "properties": {"placeName": "Lloydminster, SK", "playerCount": 1, "players": "Braden Holtby, Goalie, WSH"}}, {"geometry": {"type": "Point", "coordinates": [17.1412726, 60.6748796]}, "type": "Feature", "properties": {"placeName": "G\u00e4vle, Sweden", "playerCount": 1, "players": "Nicklas Backstrom, Center, WSH"}}, {"geometry": {"type": "Point", "coordinates": [37.6173, 55.755826]}, "type": "Feature", "properties": {"placeName": "Moscow, Russia", "playerCount": 2, "players": "Stanislav Galiev, Right Wing, WSH<br>Alex Ovechkin, Left Wing, WSH"}}, {"geometry": {"type": "Point", "coordinates": [-71.3468091, 42.2775281]}, "type": "Feature", "properties": {"placeName": "Natick, MA", "playerCount": 1, "players": "John Carlson, Defenseman, WSH"}}, {"geometry": {"type": "Point", "coordinates": [61.4368431, 55.1644419]}, "type": "Feature", "properties": {"placeName": "Chelyabinsk, Russia", "playerCount": 1, "players": "Evgeny Kuznetsov, Center, WSH"}}, {"geometry": {"type": "Point", "coordinates": [-114.0708459, 51.0486151]}, "type": "Feature", "properties": {"placeName": "Calgary, AB", "playerCount": 1, "players": "Jay Beagle, Right Wing, WSH"}}, {"geometry": {"type": "Point", "coordinates": [-89.2476823, 48.3808951]}, "type": "Feature", "properties": {"placeName": "Thunder Bay, ON", "playerCount": 1, "players": "Taylor Chorney, Defenseman, WSH"}}, {"geometry": {"type": "Point", "coordinates": [-122.4194155, 37.7749295]}, "type": "Feature", "properties": {"placeName": "San Francisco, CA", "playerCount": 1, "players": "Brooks Orpik, Defenseman, WSH"}}, {"geometry": {"type": "Point", "coordinates": [-113.4909267, 53.544389]}, "type": "Feature", "properties": {"placeName": "Edmonton, AB", "playerCount": 1, "players": "Jason Chimera, Left Wing, WSH"}}, {"geometry": {"type": "Point", "coordinates": [-63.28694069999999, 45.3657733]}, "type": "Feature", "properties": {"placeName": "Truro, NS", "playerCount": 1, "players": "Zach Sill, Center, WSH"}}, {"geometry": {"type": "Point", "coordinates": [87.12157049999999, 53.7595935]}, "type": "Feature", "properties": {"placeName": "Novokuznetsk, Russia", "playerCount": 1, "players": "Dmitry Orlov, Defenseman, WSH"}}, {"geometry": {"type": "Point", "coordinates": [-95.762766, 48.8460926]}, "type": "Feature", "properties": {"placeName": "Roseau, MN", "playerCount": 1, "players": "Aaron Ness, Defenseman, WSH"}}, {"geometry": {"type": "Point", "coordinates": [-122.9805104, 49.2488091]}, "type": "Feature", "properties": {"placeName": "Burnaby, BC", "playerCount": 1, "players": "Karl Alzner, Defenseman, WSH"}}, {"geometry": {"type": "Point", "coordinates": [-122.2020794, 47.9789848]}, "type": "Feature", "properties": {"placeName": "Everett, WA", "playerCount": 1, "players": "T.J. Oshie, Right Wing, WSH"}}, {"geometry": {"type": "Point", "coordinates": [-79.3831843, 43.653226]}, "type": "Feature", "properties": {"placeName": "Toronto, ON", "playerCount": 1, "players": "Tom Wilson, Right Wing, WSH"}}, {"geometry": {"type": "Point", "coordinates": [-94.4893924, 49.7670416]}, "type": "Feature", "properties": {"placeName": "Kenora, ON", "playerCount": 1, "players": "Mike Richards, Center, WSH"}}, {"geometry": {"type": "Point", "coordinates": [-92.53657129999999, 47.5232596]}, "type": "Feature", "properties": {"placeName": "Virginia, MN", "playerCount": 1, "players": "Matt Niskanen, Defenseman, WSH"}}, {"geometry": {"type": "Point", "coordinates": [-94.16324039999999, 45.5579451]}, "type": "Feature", "properties": {"placeName": "St. Cloud, MN", "playerCount": 1, "players": "Nate Schmidt, Defenseman, WSH"}}, {"geometry": {"type": "Point", "coordinates": [14.3122246, 46.6364598]}, "type": "Feature", "properties": {"placeName": "Klagenfurt, Austria", "playerCount": 1, "players": "Andre Burakovsky, Left Wing, WSH"}}]}